가맹점명,주소,위도,경도
가락2호,서울 송파구 가락동 75-7,37.4970092,127.1200284
가람마을,경기 파주시 와동동 1557-1,37.7344573,126.7553332
가산디지털,서울 금천구 가산동 371-6 가산비지니스센터 2층,37.4801997,126.8810684
가야,부산 부산진구 가야동 478,35.1477150,129.0307121
가양,서울 강서구 등촌동 75-1,37.5612622,126.8539775
가오천동,대전 동구 가오동 235-12,36.3058191,127.4527061
가장내동,대전 서구 가장동 50-45,36.3325380,127.3874929
가정루원시티,인천 서구 가정동 614-14,37.5279304,126.6710410
가좌,인천 서구 가좌동 30-78,37.4940776,126.6842961
가평,경기 가평군 가평읍 대곡리 168-5,37.8249242,127.5151701
가호,경남 진주시 호탄동 611-3,35.1634914,128.1156362
가흥,경북 영주시 가흥동 1881,36.8124780,128.6061076
간석1호,인천 남동구 구월동 70-80,37.4580290,126.7146509
갈곶고현,경기 평택시 갈곶리 239-48,37.1275894,127.0690017
갈마1호,대전 서구 갈마동 394-29,36.3456332,127.3696989
갈매,"경기 구리시 갈매동 608-1 101호, 102호",37.6312921,127.1161635
갈산삼산지구,인천 부평구 갈산동 55-8,37.5174489,126.7312102
감계,경남 창원시 의창구 북면 감계리 246-4,35.3008574,128.5932045
감만,부산 남구 감만1동 158-6,35.1154118,129.0812322
감삼성당,대구 달서구 감삼동 317-3,35.8437196,128.5400098
강남대,경기 용인시 기흥구 구갈동 594 강남피아,37.2712465,127.1281652
강남역,서울 서초구 서초동 1309-6,37.5017576,127.0242596
강동산하,울산 북구 산하동 89,35.6355229,129.4378354
강서,충북 청주시 흥덕구 가경동 1849,36.6204056,127.4270973
강서구청,서울 강서구 화곡동 986-16,37.5495834,126.8472997
강선,경기 고양시 일산동구 정발산동 687-5,37.6687220,126.7742496
강일,서울 강동구 강일동 679-3 리슈빌오피스텔,37.5643942,127.1737473
강제,충북 제천시 강제동 832,37.1224517,128.2005692
강진,전남 강진군 강진읍 남성리 5-4,34.6384950,126.7692260
강화,인천 강화군 강화읍 갑곳리 199-1,37.7430081,126.4918843
개금1호,부산 부산진구 개금동 2-1,35.1616256,129.0258969
개금2호,부산 부산진구 개금동 523-17,35.1513454,129.0200100
개봉1호,서울 구로구 개봉동 403-159,37.4884225,126.8564731
개운,강원 원주시 개운동 395-23,37.3412086,127.9592592
개포1호,서울 강남구 개포동 1229-18,37.4762624,127.0469152
개포2호,서울 강남구 개포동 158-4,37.4827618,127.0619767
갱고개,충북 충주시 교현동 173-11,36.9746862,127.9400149
거모,경기 시흥시 거모동 1757-1,37.3447605,126.7853295
거북섬,경기 시흥시 정왕동 2720-6,37.3225229,126.6831532
거여가락1호,서울 송파구 가락동 180-9,37.4925188,127.1355801
거제법조,부산 연제구 거제동 891-14,35.1931638,129.0665728
거창1호,경남 거창군 거창읍 대동리 697-5,35.6910606,127.9149314
건대,서울 광진구 화양동 9-18,37.5417034,127.0693988
건입,제주 제주시 일도2동 160-9,33.5115164,126.5387850
검암,인천 서구 검암동 626-2번지 태건프라자 105호,37.5620797,126.6735155
경북도청,경북 예천군 호명면 산합리 1408,36.5763198,128.4890739
경산,경북 경산시 옥산동 758-10(1층),35.8248130,128.7280795
경산오거리,경북 경산시 중방동 880-1,35.8235938,128.7377329
경포,강원 강릉시 안현동 861-8,37.8034555,128.9027003
경희대,서울 동대문구 회기동 42-16,37.5929218,127.0514864
계룡대,충남 계룡시 엄사면 엄사리 253-1,36.2886975,127.2380008
계림,광주 동구 대인동 319-6,35.1562222,126.9140074
계명,대구시 남구 양지로 107,35.8517103,128.5795069
계산1호,인천 계양구 계산동 1081-10,37.5359698,126.7368935
계산2호,인천 계양구 계산동 61-2,37.5381484,126.7308262
계산3호,인천 계양구 계산동 942-30,37.5407958,126.7217158
계양사동,경북 경산시 사동 48,35.8135182,128.7578278
고덕1호(서울),서울 강동구 고덕동 650-1,37.5598121,127.1516836
고덕1호(평택),경기 평택시 고덕면 여염리 4434-2,37.0427336,127.0526829
고등,경기 성남시 수정구 고등동 595-11,37.4278106,127.0948606
고령,경북 고령군 대가야읍 지산리 3-11,35.7271587,128.2655110
고성(강원),강원 고성군 간성읍 하리 18-1,38.3795741,128.4677103
고성(경남),경남 고성군 고성읍 송학리 244-88,34.9776704,128.3267292
고양동,경기 고양시 덕양구 고양동 176-8 104호,37.7070618,126.9030386
고운,세종 고운동 1718,36.5055622,127.2337192
고읍1호,경기 양주시 광사동 657,37.7939693,127.0794915
고잔1호,경기 안산시 단원구 고잔동 756-1,37.3133117,126.8390525
고잔2호,경기 안산시 단원구 와동 720-13,37.3328326,126.8270266
고창,전북 고창군 고창읍 교촌리 483,35.4360554,126.7107790
고척1호,서울 구로구 개봉1동 126-4,37.5024397,126.8483742
고촌,김포시 고촌읍 신곡리 1064(스카이스퀘어 3),37.6035585,126.7680884
고현상동,경남 거제시 고현동 406-18,34.8798298,128.6277114
고흥,전남 고흥군 고흥읍 남계리 439-3,34.6111488,127.2878787
곡반정,경기 수원시 권선구 곡반정동 584-4,37.2355158,127.0262507
곤지암,경기 광주시 곤지암읍 곤지암리 443-9,37.3500882,127.3401603
공도1호,경기 안성시 공도읍 만정리 417-98,36.9989431,127.1687495
공릉1호,서울 노원구 공릉동 338-6,37.6229737,127.0791682
공릉2호,서울 노원구 공릉동 461-1,37.6302391,127.0757695
공릉3호,서울 노원구 공릉동 568-27,37.6230953,127.0734786
공업탑,울산 남구 신정동 1218-7,35.5331562,129.3074739
공항신도시,인천 중구 운서동 2801-3,37.4944794,126.4912535
과천1호,경기 과천시 원문동 4 레미안 슈르 A상가(4번지)동 제1층 1023호,37.4206753,126.9923004
과천역,경기 과천시 부림동 49,37.4320041,127.0000714
관교,인천 남구 관교동 321-5,37.4469962,126.6926168
관양,경기 안양시 동안구 관양동 1724-1,37.4057972,126.9720399
관음,대구 북구 관음동 1383-9,35.9395193,128.5495092
관저1호,대전 유성구 원내동 829 외 1필지,36.3019581,127.3307063
관저느리울,대전 서구 관저동 1354,36.2979665,127.3401893
관평,대전 유성구 관평동 1056,36.4236706,127.3920731
광교1호,경기 수원시 영통구 이의동 1332 CB 4~5호,37.2906758,127.0504754
광명1호,경기 광명시 광명동 158-1015,37.4801785,126.8525664
광명역,"경기 광명시 일직동 511-5번지 대호M스퀘어 102호, 103호",37.4201841,126.8837237
광안1호,수영구 광안동 120-13,35.1613726,129.1170074
광안2호,부산 수영구 광안동 168-3,35.1537034,129.1123836
광양읍1호,전남 광양시 광양읍 칠성리 947-3,34.9725758,127.5813735
광양읍2호,전남 광양시 광양읍 용강리 857-5번지,34.9760817,127.6066680
광장,서울 광진구 광장동 530-13,37.5419658,127.0957299
광주1호,경기 광주시 경안동 154-1,37.4120953,127.2514656
광혜원,충북 진천군 광혜원면 광혜원리 503-7,36.9903056,127.4414161
괘법,부산 사상구 괘법동 516-1,35.1677739,128.9805404
괴안,경기 부천시 소사구 괴안동 39-2,37.4809694,126.8051083
괴정1호,부산 사하구 괴정동 487-24,35.0963743,128.9927189
교동(속초),강원 속초시 교동 974-2,38.1946199,128.5749500
교동(울산),울산 울주군 삼남면 교동리 1578-1,35.5610231,129.1164677
교동1호(강릉),강원 강릉시 교1동 1863-3,37.7649966,128.8782998
교촌Togo화진,경북 포항시 북구 송라면 지경리 337-10,36.2531468,129.3720620
교하신도시,경기 파주시 다율동 1001-6,37.7267292,126.7168164
구갈2지구,경기 용인시 기흥구 구갈동 353-3,37.2805906,127.1132467
구래,경기 김포시 구래동 6883-1,37.6452662,126.6263133
구례,전남 구례군 구례읍 봉남리 11-9,35.2060463,127.4677274
구로2호,서울 구로구 구로동 74-30,37.4961277,126.8930518
구로디지털,서울 구로구 구로동 826-1,37.4825867,126.8980183
구룡포,경북 포항시 남구 구룡포읍 구룡포리 742-1,35.9919663,129.5502361
구산,경남 김해시 구산동 275-8,35.2483613,128.8729740
구산역,서울 은평구 갈현동 464-14,37.6128910,126.9172575
구서1호,부산 금정구 구서2동 1024-1,35.2580214,129.0862448
구서역,부산 금정구 구서동 457-23,35.2449989,129.0887424
구성1호,경기 용인시 기흥구 마북동 370-9,37.2951412,127.1119064
구암,대구 북구 태전동 1074-6,35.9253016,128.5485309
구암조촌,전북 군산시 조촌동 2-21,35.9766005,126.7405603
구영,울산 울주군 범서읍 구영리 801-6,35.5712213,129.2425549
구월,인천 남동구 구월동 1133-13,37.4537025,126.7040931
구월아시아드,인천 남동구 구월동 1517-2,37.4431663,126.7166447
구의역,서울 광진구 구의동 257-70,37.5389730,127.0851300
구일산,경기 고양시 일산서구 일산동 967-6,37.6873501,126.7648789
구지,대구 달성군 구지면 응암리 1204-2,35.6567024,128.4188803
구포1호,부산 북구 구포3동 1228-1,35.1983574,129.0084263
구포2호,부산 북구 구포동 932-35,35.2000481,128.9970550
국동,전남 여수시 신월동 96-1,34.7246464,127.7096182
국제신도시,부산 강서구 명지동 3412-6,35.0977301,128.9196250
군산대,전북 군산시 미룡동 867-2,35.9474076,126.6864366
권곡,충남 아산시 권곡동 549-26,36.7848834,127.0108445
권선1호,경기 수원시 권선구 권선동 1260-5,37.2526934,127.0284987
궐동,경기 오산시 궐동 650-1,37.1582516,127.0612471
금곡(부산),부산 북구 금곡동 57-6,35.2640690,129.0200540
금곡(안동),경북 안동시 당북동 311-8,36.5643213,128.7204723
금곡1호,경기 수원시 권선구 금곡동 1088-1,37.2734592,126.9429639
금광1호,경기 성남시 중원구 금광동 2706,37.4513367,127.1686109
금당1호,전남 순천시 조례동 1612번지 1-4호,34.9531717,127.5301435
금산(진주),경남 진주시 중천리 192-3,35.2133370,128.1482269
금산(충남),충남 금산군 금산읍 상리 47-10,36.1079870,127.4898771
금오,경기 의정부시 금오동 473-4,37.7513232,127.0695999
금정역,경기 군포시 산본동 236-2,37.3698453,126.9394434
금천광장,충북 청주시 상당구 용담동 395,36.6318428,127.5060534
금촌1호,경기 파주시 금촌동 51-8,37.7640910,126.7759011
금촌로데오,경기 파주시 금촌동 986-2,37.7522161,126.7662970
금호,광주 서구 쌍촌동 881번지,35.1445211,126.8575195
금호역,서울 성동구 금호동4가 1380,37.5481830,127.0187204
금호지구,대구 북구 사수동 912,35.8971015,128.5161892
기장,부산 기장군 기장읍 동부리 134-2,35.2475898,129.2143168
기지시,충남 당진시 반촌리 861-20,36.9015843,126.6981181
길1호,서울 강동구 길동 347-31,37.5411184,127.1425851
길동역,서울 강동구 길동 388-3,37.5373928,127.1385434
길음뉴타운,서울 성북구 길음동 1284-17,37.6065752,127.0209028
김제,전북 김제시 신풍동 594-4번지,35.8020812,126.8990015
김천,경북 김천시 신음동 1301-4,36.1329097,128.1213771
김천부곡,경북 김천시 부곡동 426-1,36.1246334,128.1049936
김천혁신,경북 김천시 율곡동 364,36.1214199,128.1821472
까치산역,서울 강서구 화곡동 343-62 라인씨티 1층,37.5307760,126.8467602
나운1호,전북 군산시 나운동 834-7,35.9657041,126.6992036
나주,전남 나주시 대호동 1040-7,35.0404480,126.7178682
남구로,서울 구로구 구로동 704-38,37.4917010,126.8822833
남목서부,울산 동구 서부동 113-33,35.5235004,129.4318207
남문,경남 창원시 진해구 남문동 1246-4 (골든프라자),35.1064496,128.7535284
남부(순천),전남 순천시 풍덕동 1265-5,34.9441874,127.4943453
남부(포항),경북 포항시 남구 대도동 124-13,36.0146305,129.3652122
남부민,부산 서구 충무동2가 3-1,35.0954711,129.0225609
남사,경기 용인시 처인구 남사면 아곡리 702,37.1525574,127.1720847
남산1호,부산 금정구 남산동 99-6,35.2679780,129.0892908
남악,"전남 무안군 삼향읍 남악리 1577 골든스위트 119, 120호",34.8103989,126.4664020
남양(창원),경남 창원시 성산구 가음동 7-2 더원빌딩 104호,35.2096254,128.6889691
남양1호(화성),경기 화성시 남양읍 남양리 2073-6,37.2021066,126.8262835
남원,전북 남원시 도통동 387-12,35.4131958,127.3915460
남지,경남 창녕군 남지읍 남지리 994-7,35.3918055,128.4807152
남창,울산 울주군 온양읍 대안리 179-10,35.4093204,129.2900568
남평,전남 나주시 남평읍 동사리 359-3,35.0408407,126.8518250
남포부평,부산 중구 중앙동1가 23-6,35.1004597,129.0356328
남해,경남 남해군 남해읍 서변리 160-11,34.8360000,127.8946437
낭월,대전 동구 낭월동 370,36.2823405,127.4667577
내곡,강원 강릉시 내곡동 428-1,37.7444887,128.8840536
내당,대구 서구 내당동 219-7,35.8595295,128.5611541
내동,경남 김해시 내동 138-1,35.2440638,128.8632555
내서삼계,경남 창원시 마산회원구 삼계리 35-14,35.2310856,128.5016567
내손갈뫼,경기 의왕시 내손1동 755-4 명성프라자,37.3790869,126.9744081
내일동,경남 밀양시 내이동 1566-6,35.4994084,128.7466520
내포1호,충남 홍성군 홍북면 신경리 1181번지 승우빌딩 107호,36.6481097,126.6746963
노대효천,광주 남구 노대동 819,35.1023582,126.9014187
노량진,서울 동작구 노량진동 37-1,37.5123832,126.9385754
노암,강원 강릉시 노암동 708-1,37.7479985,128.8971170
노은1지구,대전 유성구 노은동 553-9 스타돔 120호,36.3658129,127.3172766
노은2지구,대전 유성구 지족동 985-2,36.3870240,127.3161117
노형,제주 제주시 노형동 1055-1,33.4886429,126.4759347
녹번,서울 은평구 녹번동 82-47,37.6034902,126.9257936
녹양,경기 의정부시 가능동 92-51,37.7585153,127.0407900
논공,대구 달성군 논공읍 북리 803-148,35.7298484,128.4453948
논현1호(서울),서울 강남구 논현동 164-16,37.5083552,127.0234459
논현1호(인천),인천 남동구 논현동 620-8,37.4020201,126.7215098
논현에코메트로,인천 남동구 논현동 752-1,37.3984836,126.7341642
농성1호,광주 서구 화정동 178-128,35.1549836,126.8808712
늘품,강원 원주시 반곡동 1767-54,37.3331561,127.9630827
능곡,경기 시흥시 능곡동 545,37.3703247,126.8104758
능평,경기 처인구 모현읍 능원리 16-11,37.3432726,127.1774407
다대1호,부산 사하구 다대2동 85-5,35.0665571,128.9803139
다대2호,부산 사하구 다대동 1014,35.0586485,128.9659410
다사,대구 달성군 다사읍 죽곡리 809-1,35.8568475,128.4645436
다산,경북 고령군 다산면 상곡리 162-21,35.8240527,128.4502179
다산신도시1호,경기 남양주시 다산동 산3006-2,37.6214301,127.1612650
다운,울산 중구 다운동 536-1,35.5582784,129.2727467
다정,세종특별자치시 다정동 363-10,36.4921075,127.2553108
단계,강원 원주시 단계동 838-4,37.3479836,127.9300585
단구,강원 원주시 단구동 1631-2,37.3229204,127.9571497
단양,충북 단양군 단양읍 도전리 523,36.9810811,128.3702984
달동,울산 남구 달동 135-2,35.5349441,129.3242857
달성비산,대구 서구 비산동 440-5,35.8746770,128.5709029
담양,전남 담양군 담양읍 백동리 247-7,35.3129895,126.9829679
답십리1호,서울 동대문구 답십리동 53-50,37.5722845,127.0571367
당감,부산 부산진구 당감동 367-2,35.1647939,129.0346715
당동1호,경기 군포시 당동 904-5 그린프라자 102호,37.3479296,126.9439443
당리괴정2호,부산 사하구 괴정동 577-42,35.1000088,128.9833570
당산,서울 영등포구 영등포동8가 35-1,37.5267541,126.9050464
당하,인천 서구 마전동 585,37.5952241,126.6721762
대곡,대구 달서구 도원동 1442-2 1층 107호,35.8060523,128.5351847
대곡2지구,대구 달서구 대곡동 1068,35.8035196,128.5291248
대관령,강원 평창군 횡계리 354-8,37.6667880,128.7101371
대교남항,부산 영도구 남항동1가 82,35.0902118,129.0383684
대구혁신,대구 동구 각산동 1098-5 102호,35.8777083,128.7222594
대림2호,서울 영등포구 대림동 783-1,37.5025428,126.8962519
대명1호,대구 남구 대명동 1098-4,35.8389485,128.5641831
대방,경남 창원시 성산구 성주동 100,35.2038448,128.7116559
대사부사,대전 중구 대사동 69-53,36.3183872,127.4297540
대소,충북 음성군 대소면 태생리 539-170,36.9649612,127.4907399
대신,부산 서구 서대신동1가 163-1,35.1094136,129.0147641
대연1호,부산 남구 대연동 1013-8,35.1300070,129.0899871
대연2호,부산 남구 대연동 52-7,35.1366681,129.1020801
대연3호,부산 남구 대연동 1161-9,35.1254625,129.0889411
대정,제주 서귀포시 대정읍 하모리 1048-4,33.2208699,126.2507035
대조,서울특별시 은평구 대조동 231,37.6090415,126.9217359
대청,경남 김해시 대청동 61-1,35.1938611,128.7974085
대치1호,서울 강남구 대치동936,37.4975329,127.0526933
대치2호,서울 강남구 대치동 989-4,37.4986653,127.0618028
대학로,서울 종로구 명륜동4가 113-1,37.5820867,127.0004837
대해중앙,경북 포항시 남구 대도동 97-4,36.0208151,129.3633489
대화,경기 고양시 일산서구 대화동 2126-2 (동남빌딩 101호),37.6785394,126.7551091
대흥,대전 중구 대흥동 204-3,36.3277129,127.4245286
덕계,경남 양산시 덕계동 750,35.3730204,129.1495183
덕계(양주),경기 양주시 덕계동 698-5,37.8166880,127.0458655
덕산,충북 진천군 덕산읍 용몽리 85,36.9083673,127.5181626
덕성여대,서울 강북구 우이동 72-133,37.6502187,127.0131230
덕소1호,경기 남양주시 와부읍 덕소리 141-91,37.5879445,127.2169152
덕신,울산 울주군 덕신리 1294-2,35.4349243,129.3106961
덕정1호,경기 양주시 덕정동 240-27,37.8346933,127.0656430
덕천2호,부산 북구 덕천3동 781-2,35.2107756,129.0191851
덕천역,부산 북구 덕천동 402-12,35.2096088,129.0075494
덕충,전남 여수시 덕충동 2041,34.7531688,127.7433022
덕포,부산 사상구 덕포동 767-10,35.1757319,128.9886875
덕풍1호,경기 하남시 덕풍동 309-64,37.5434830,127.2026968
덕하,울산 울주군 상남리 818-17,35.4845474,129.3039955
도계명서,경남 창원시 의창구 도계동 396-9,35.2577711,128.6392783
도곡,서울 강남구 도곡동 416-4,37.4853391,127.0441262
도구청림,경북 포항시 남구 동해면 도구리 694-3,35.9880822,129.4423367
도남지구,대구 북구 국우동 592-1,35.9506142,128.5799839
도농1호,경기 남양주시 다산동 608,37.6043327,127.1596053
도담,세종 도담동 245-1,36.5152267,127.2575548
도두해안도로,제주 제주시 도두1동 2625-4,33.5037387,126.4661916
도량,경북 구미시 도량동 262-1,36.1385665,128.3241720
도마1호,대전 서구 도마동 114-19,36.3163594,127.3715032
도봉동,서울 도봉구 도봉2동 623-163,37.6717085,127.0463179
도안1지구,대전 유성구 상대동 469-9,36.3474834,127.3391568
도안2지구,대전 서구 가수원동 1036,36.3063271,127.3519035
도화(서울),서울 마포구 도화동 55,37.5382978,126.9464281
도화(인천),인천 미추홀구 도화동 1005-3 스카이프라자2,37.4726337,126.6615569
독립문,서울 서대문구 냉천동 226,37.5676348,126.9645062
독산1호,서울 금천구 독산동 961-10,37.4774057,126.9039497
독산2동,서울 금천구 독산동 1059-4,37.4612740,126.8984710
돌산,전남 여수시 돌산읍 우두리 1095-9,34.7194477,127.7523741
동구청,대구 동구 신암동 345-3,35.8846681,128.6328440
동금,경남 사천시 동금동 58-4,34.9328720,128.0813914
동남지구,충북 청주시 상당구 용암동 3034,36.6169100,127.5157980
동대,충남 보령시 동대동 1766,36.3469285,126.6040007
동덕여대,서울 성북구 하월곡동 17-1,37.6037134,127.0430094
동명,강원 속초시 동명동 1-18,38.2125814,128.5998369
동문,충남 서산시 동문동 406-2,36.7847335,126.4596340
동백1호,경기 용인시 기흥구 동백동 614-5,37.2835528,127.1534923
동부이촌,서울 용산구 이촌1동 301-153 오성상가 103,37.5207704,126.9745910
동삭1호,경기 평택시 동삭동 704-4,37.0070973,127.0961164
동산,전북 익산시 마동 344-5,35.9340399,126.9619570
동산조촌,전북 전주시 덕진구 반월동 230-6,35.8755660,127.0763514
동삼,부산 영도구 동삼동 219-146,35.0828152,129.0711201
동서대,부산 사상구 주례동 55-176,35.1497930,129.0136967
동서변,대구 북구 동변동 669-4,35.9210259,128.6031144
동소문,서울 성북구 동선동5가 147-13,37.5970487,127.0152570
동양미래대학,서울 구로구 고척동 343,37.5029264,126.8631400
동읍,경남 창원시 의창구 동읍 용잠리 371-2,35.2772949,128.6852307
동천(경주),경북 경주시 동천동 987-44,35.8583137,129.2244534
동천(광주),광주 서구 동천동 598,35.1714941,126.8667045
동천1호,경기 용인시 수지구 동천동 941-7,37.3372788,127.0915407
동천3지구,대구 북구 동천동 906-3,35.9428328,128.5595671
동촌,대구 동구 검사동 1111,35.8864260,128.6519602
동춘,인천 연수구 동춘동 934-1,37.4074620,126.6719071
동탄1능동,경기 화성시 반송동 70-4,37.2017758,127.0604547
동탄1호,경기 화성시 반송동 42-6,37.2075227,127.0650354
동탄2 영천,경기 화성시 영천동 701-1,37.2059287,127.1124876
동탄2목동,경기 화성시 목동 454-5,37.1816365,127.1260257
동탄2산척,경기 화성시 산척동 산16,37.1739310,127.1137762
동탄2청계,경기 화성시 청계동 536,37.1991807,127.1142770
동탄2호,경기 화성시 반송동 217-6,37.1931568,127.0733803
동탄2호수공원,경기도 화성시 송동 709-1,37.1655960,127.0940031
동탄테크노밸리,경기 화성시 영천동 797-1,37.2078696,127.0932925
동판교,경기 성남시 분당구 삼평동 664,37.3974933,127.1107738
동호,대구 동구 동호동 384-7,35.8655357,128.7241076
두류,대구 달서구 두류동 620-12,35.8520637,128.5548607
두암1호,광주 북구 두암2동 826-50,35.1749020,126.9332276
두정,충남 천안시 서북구 성정2동 1211,36.8284953,127.1350981
둔덕,전남 여수시 둔덕동 434-7,34.7685958,127.6940760
둔산1호,대전 서구 둔산2동 1093,36.3521972,127.3743752
둔산2호,대전 서구 둔산동 1851,36.3510458,127.4002938
둔전,경기 용인시 처인구 포곡읍 둔전리 400-2,37.2682348,127.2144995
둔촌1호,서울 강동구 둔촌동 454-5,37.5312120,127.1420296
등촌,서울 강서구 등촌동 649-14,37.5522155,126.8633122
마곡역,서울 강서구 마곡동 774-1,37.5597183,126.8308928
마린시티,부산 해운대구 우동 1434-2,35.1572580,129.1482829
마산현동,경남 창원시 마산합포구 현동 374,35.1506092,128.5540031
마석,경기 남양주시 화도읍 마석우리 384-8,37.6595395,127.3046678
마재,"광주 서구 금호동 813 대주파크빌상가 124동 114호, 115호",35.1276101,126.8563361
마천1호,서울 송파구 거여동 32-6,37.4927018,127.1490892
만년,대전 서구 만년동 316,36.3687361,127.3816084
만덕1호,부산 북구 만덕동 294,35.2122895,129.0364851
만덕2호,부산 북구 만덕3동 915-6,35.2116238,129.0285511
만성,전북 전주시 덕진구 만성동 1365-6,35.8445529,127.0744425
만수1호,인천 남동구 만수동 1045 103호,37.4410606,126.7373706
만수2호,인천 남동구 만수동 1118-2,37.4614100,126.7330767
만수3호,인천 남동구 간석3동 921-14,37.4611340,126.7207851
만촌1호,대구 수성구 만촌동 849-2,35.8575814,128.6480999
만촌2호,대구 수성구 만촌1동 1326-32,35.8718317,128.6366395
망미1호,부산 수영구 망미동 413-11,35.1753163,129.1077353
망우본동,서울 중랑구 망우동 251-2,37.6070849,127.1059496
망원2동,서울 마포구 망원동 482-9,37.5581909,126.9078032
매곡,광주 북구 매곡동 334-5,35.1889020,126.8904465
매교,경기 수원시 권선구 세류동 97-5,37.2658427,127.0119896
매탄1호,경기 수원시 영통구 매탄동 1170-4,37.2553963,127.0402585
매탄2호,경기 수원시 영통구 매탄2동 199-69,37.2691709,127.0480327
매탄3호,경기 수원시 영통구 매탄4동 208-21,37.2666247,127.0462209
메트로시티1호,부산 남구 용호동 176-30,35.1282159,129.1123623
면목1호,서울 중랑구 면목본동 72-43,37.5893719,127.0927582
면목2호,서울 중랑구 면목2동 191-126,37.5897150,127.0736576
명곡,대구 달성군 화원읍 명곡리 320-1,35.7987913,128.4925878
명륜(원주),강원 원주시 명륜동 539,37.3316505,127.9465367
명일1호,서울 강동구 명일동 328-2,37.5496678,127.1469530
명장1호,부산 동래구 명장동 26-24번지 국제아파트 상가 106호,35.2055856,129.0997535
명지대,서울 서대문구 남가좌동 344-7,37.5780370,126.9219940
명지법원네오,부산 강서구 명지동 3432-1 2동 102호,35.0935624,128.9102604
명지신도시,부산 강서구 명지동 3256-5,35.0858853,128.9097638
모라,부산 사상구 모라동 1349-4,35.1899613,128.9913342
모란역,경기 성남시 중원구 성남동 3249,37.4330963,127.1315811
모현,전북 익산시 모현동1가 857,35.9523188,126.9410589
목3동,서울 양천구 목동 722-8 호성빌딩,37.5390323,126.8639954
목감신도시2호,경기 시흥시 조남동 657-2,37.3777294,126.8524099
목감역,경기 시흥시 목감동 410-2,37.3830250,126.8625859
목동1호,서울 양천구 목동 797-3,37.5325840,126.8665499
목동2호,서울 양천구 목동 909-8 이화프라자 1층 101호,37.5368967,126.8836175
목동오거리,서울 양천구 목동 940 현대아이파크상가 102,37.5289975,126.8650303
목동파크자이,서울 양천구 신정동 171-68,37.5084840,126.8688724
목천,충남 천안시 동남구 목천읍 신계리 134-18,36.7729097,127.2095066
못골,부산 남구 대연동 1543-33,35.1382105,129.0868243
무거1호,울산 남구 무거동 1484-2,35.5496350,129.2648945
무동,경남 창원시 의창구 북면 무동리 145-7,35.3175804,128.5845396
무실,강원 원주시 무실동 1664-3,37.3330848,127.9233461
무안읍,전남 무안군 무안읍 성남리 813-45,34.9867880,126.4734010
무주,전북 무주군 무주읍 읍내리 962,36.0061395,127.6575752
무주구천,전북 무주군 설천면 삼공리 364-4,35.9061211,127.7807907
무지개마을,경기 성남시 분당구 구미동 212-2,37.3360860,127.1185714
묵동,서울 중랑구 묵동 175-2,37.6126015,127.0775889
묵호,강원 동해시 부곡동 74-5,37.5366426,129.1027456
문래,서울 영등포구 문래동3가 77-34,37.5193913,126.8895701
문막,강원 원주시 문막읍 건등리 1705-3,37.3134076,127.8200605
문산,경기 파주시 문산읍 방촌로 1729,37.8670845,126.7848485
문성,경북 구미시 고아읍 문성리 1850,36.1603178,128.3488296
문수,전남 여수시 문수동 124-1,34.7531722,127.7025216
문정법조,서울 송파구 문정동 620 송파푸르지오시티 B09호,37.4807743,127.1212572
문현1호,부산 남구 문현동 359-5,35.1364020,129.0714043
문현2호,부산 남구 문현1동 127-56,35.1431547,129.0713240
문화1호,대전 중구 문화동 466-16,36.3099055,127.4025906
문화중앙,경남 창원시 마산합포구 중앙동2가 5-42번지,35.1926227,128.5646543
문흥1호,광주 북구 문흥동 980-15,35.1887846,126.9259243
물금,경남 양산시 물금읍 범어리 2682-10,35.3301709,129.0115400
물금역,경남 물금읍 물금리 800-5,35.3102903,128.9885057
미금,경기 성남시 분당구 구미동 50-2,37.3471248,127.1108263
미사1호,경기 하남시 망월동 1004-1,37.5694438,127.1830564
미사역,경기도 하남시 망월동 1098-3,37.5626002,127.1899540
미수봉평,경남 통영시 미수동 22-1번지 운하상가 115호,34.8320799,128.4124209
미아1호,서울 강북구 미아동 561-2 현대성우아파트 상가 104호,37.6172169,127.0221100
미아사거리,서울 강북구 미아동 55-5,37.6122811,127.0321184
미아역,서울 강북구 미아동 131-8,37.6215401,127.0283984
미원,전북 군산시 대명동 384-10,35.9784333,126.7208929
미장수송,전북 군산시 수송동 841-5,35.9658242,126.7194550
민락(부산),부산 수영구 민락동 165-15,35.1582128,129.1208480
민락(의정부),경기 의정부시 민락동 834-3,37.7459831,127.0972726
민락2호,경기 의정부시 민락동 902-1,37.7517122,127.1180831
박달사거리,경기 안양시 만안구 박달동 85-15,37.4024210,126.9090557
반구1호,울산 중구 반구동 874-3,35.5604351,129.3487627
반구2호,울산 중구 반구동 99-17,35.5620460,129.3373782
반송(부산),부산 해운대구 반송2동 216-150,35.2296953,129.1548913
반송(창원),경남 창원시 성산구 반지동 74-3,35.2395489,128.6615930
반여1호,부산 해운대구 반여동 1628-5,35.2011167,129.1236771
반월,경기 안산시 상록구 건건동 650-1,37.3044684,126.9022228
반포1호,서울 서초구 반포동 1053 H동 26호,37.5009345,126.9866667
반포삼호가든,서울 서초구 반포동 53-7,37.5013160,127.0111098
발산,서울 강서구 내발산동 648-15,37.5574944,126.8437582
방배1호,서울 서초구 방배동 761-8,37.4954244,126.9856359
방배2호,서울 서초구 방배동 912-8,37.4814978,126.9965972
방어,울산 동구 방어동 1087-9,35.4833915,129.4180582
방이2호,서울 송파구 방이동 59-1,37.5148082,127.1096736
방이역,서울 송파구 오금동 41-23 성암빌딩 1층,37.5073562,127.1285888
방촌,대구 동구 방촌동 1118-121,35.8768259,128.6694672
방학,서울 도봉구 방학동 659-32,37.6670089,127.0388285
방화1호,서울 강서구 방화동 571-1,37.5736289,126.8136657
방화2호,서울 강서구 방화2동 580-27,37.5705607,126.8123225
배곧신도시1호,"경기 시흥시 정왕동 2475 에이플러스 115, 116호",37.3778820,126.7264547
배곧신도시2호,경기 시흥시 정왕동 2536,37.3671173,126.7282012
배미,충남 아산시 배미동 239-17,36.7871852,126.9694208
배방1호,충남 아산시 배방읍 공수리 1639,36.7755179,127.0578694
백마강촌,경기 고양시 일산동구 마두동 753-3,37.6578107,126.7877072
백석(양주),경기 양주시 백석읍 복지리 168-3,37.7898444,126.9923338
백석(천안),충남 천안시 서북구 백석동 910번지 주공아파트상가 103호,36.8199282,127.1187308
백송,경기 고양시 일산동구 백석동 1225 중앙프라자 103호,37.6493196,126.7863312
백운,광주 남구 서동 71-15,35.1431740,126.9056444
백운호수,경기 의왕시 학의동 1093-4,37.3729938,127.0093296
번동,서울 강북구 번동 169-1,37.6272822,127.0410486
벌용,경남 사천시 벌리동 255-9,34.9400820,128.0855953
범계,경기 안양시 비산동 1110-1,37.3928277,126.9530195
범물,대구 수성구 범물동 1374-4,35.8176585,128.6441371
범어1호,대구 수성구 범어동 203-18,35.8573386,128.6342759
범어2호,대구 수성구 범어동 478-12,35.8633498,128.6237982
범일1호,부산 동구 범일동 833-2,35.1399275,129.0599241
범천,부산 부산진구 범천동 1278-11,35.1467964,129.0551797
법동,대전 대덕구 중리동 385-26,36.3632794,127.4253674
변산격포,전북 부안군 변산면 격포리 260-159,35.6287775,126.4740398
별내2호,경기 남양주시 별내동 846-7,37.6653657,127.1173134
별내역,경기 남양주시 별내동 1006-1,37.6459133,127.1257691
병점1호,"경기 화성시 병점동 379-10 병점프라자 109호, 110호",37.2064890,127.0366521
병점2호,경기 화성시 진안동 914-1,37.2146327,127.0419547
보광,서울 용산구 보광동 217-13,37.5262135,126.9987134
보라,경기 용인시 기흥구 보라동 581-2,37.2536406,127.1103000
보람,세종시 보람동 628-4,36.4779569,127.2893536
보문,서울 성북구 보문동7가 99,37.5796637,127.0221674
보성,전남 보성군 보성읍 보성리 831-19,34.7701732,127.0801852
보은,충북 보은군 보은읍 삼산리 153-2,36.4864325,127.7176200
보정,경기 용인시 기흥구 보정동 1204-4,37.3214018,127.1119283
복대1호,충북 청주시 흥덕구 복대동 1652,36.6311890,127.4510607
복사골,경기 부천시 원미구 중동 716-4,37.4949595,126.7670991
복산,울산 중구 복산동 399-12,35.5630961,129.3293959
복수,대전 서구 복수동 622,36.2987009,127.3787683
복운,충남 당진시 송악면 복운리 1642-11,36.9409388,126.7833612
복천,부산 동래구 복천동 476-1,35.2058578,129.0856305
복현1호,대구 북구 복현동 426-5,35.8955148,128.6171314
복현2호,대구 북구 복현동 539 -110 복현서한타운 상가 103호,35.9023729,128.6172980
본오1호,경기 안산시 상록구 본오동 879-10,37.2977868,126.8628704
본오2호,경기 안산시 상록구 본오동 857-8,37.2931512,126.8692115
봉곡,경북 구미시 봉곡동 302-4,36.1494457,128.3118878
봉곡사림,경남 창원시 의창구 봉곡동 116-4,35.2495189,128.6665050
봉담1호,경기 화성시 상리 26-8,37.2192823,126.9482961
봉덕,대구 남구 봉덕동 687-32,35.8426687,128.5972836
봉동,전북 완주군 봉동읍 둔산리 905-7,35.9587074,127.1245762
봉래영선,"부산 영도구 영선동1가 69-2, 69-3",35.0913941,129.0448351
봉명1호,충북 청주시 흥덕구 봉명동 2844-3,36.6505467,127.4571826
봉명다가,충남 천안시 동남구 다가동 373-6,36.8009350,127.1365004
봉방문화교현,충북 충주시 교현동 634-17,36.9786160,127.9279932
봉선1호,광주 남구 주월1동 1253-4,35.1331427,126.9103795
봉선2호,광주 남구 봉선동 164-1,35.1261952,126.9157067
봉일천,경기 파주시 조리읍 봉일천리 142-3,37.7431030,126.8081110
봉천1호,서울 관악구 봉천동 861-7,37.4819131,126.9522155
봉천2호,서울 관악구 봉천동 1674-20,37.4792906,126.9587197
봉천3호,서울 관악구 봉천동 1632-9,37.4759585,126.9640968
봉천4호,서울 관악구 봉천동 931-12,37.4832944,126.9412277
봉천5호,서울 관악구 봉천3동 7-291,37.4884991,126.9582697
봉포,강원 고성군 토성면 봉포리 166-21,38.2506596,128.5663048
봉화,경북 봉화군 봉화읍 내성리 222-1,36.8894653,128.7404420
부개3동,인천 부평구 부개동 12-176,37.5037745,126.7359977
부곡(군포),경기 군포시 부곡동 1120-4,37.3249738,126.9451460
부곡(안산),경기 안산시 상록구 부곡동 670-2,37.3316741,126.8624710
부곡1호,부산 금정구 부곡동 23-15,35.2424380,129.0936404
부곡2호,부산 금정구 부곡1동 324-20,35.2240135,129.0914125
부송,전북 익산시 부송동 710-5,35.9596859,126.9881682
부안,전북 부안군 부안읍 봉덕리 826-1,35.7255110,126.7404086
부암1호,부산 부산진구 부암동 301-33,35.1668575,129.0490336
부여,충남 부여군 부여읍 관북리 133-5,36.2829464,126.9128873
부원봉황,경남 김해시 부원동 607-3,35.2277899,128.8829347
부천역,경기 부천시 심곡동 161-5,37.4884736,126.7841177
부평1호,인천 부평구 부평동 451-30,37.5017805,126.7213173
부평2호,인천 부평구 부평동 889-8,37.5048044,126.7249724
부평역,인천 부평구 부평동 192-14,37.4938626,126.7256881
북가좌1호,서울 서대문구 북가좌동 385-8,37.5754621,126.9069022
북면,경북 울진군 북면 부구리 159-27,37.1033850,129.3738603
북변,경기 김포시 감정동 529-3,37.6233585,126.6993333
북신무전,경남 통영시 무전동 1033-2,34.8586487,128.4269467
북아현1호,서울 서대문구 북아현동 1006,37.5609449,126.9563723
분당효자,경기 성남시 분당구 서현동 333-1,37.3768744,127.1393893
분평,충북 청주시 서원구 분평동 1234,36.6100362,127.4844347
불광1동,서울 은평구 불광동 554-1 라비앙프라자1층 101호,37.6123948,126.9321148
불당,충남 천안시 서북구 불당동 1630,36.8114063,127.1067353
불로원당,인천 서구 당하동 1033-3 조이빌 103,37.5930484,126.6995399
비래,대전 동구 가양동 88-1 조일아파트상가 A동,36.3490481,127.4520823
비산1호,경기 안양시 동안구 비산동 566-7,37.3969973,126.9365777
비전1호,경기 평택시 비전동 829-1,36.9957089,127.1112154
비전2호,경기 평택시 비전동 790-3,36.9997010,127.0941049
비파,전남 목포시 상동 851,34.8085907,126.4225126
빛가람1호,전남 나주시 빛가람동 190-3,35.0220671,126.7870877
사가정역,서울 중랑구 면목동 496-14,37.5815248,127.0882337
사남,경남 사천시 사남면 월성리 64-3,35.0626085,128.0754394
사당1호,서울 동작구 사당3동 155-2 1F,37.4841839,126.9774283
사당3호,서울 동작구 사당동 220-119,37.4858444,126.9694538
사동1호,경기 안산시 상록구 사동 1172,37.3015614,126.8417591
사동2호,경기 안산시 상록구 사동 1376-7,37.2867119,126.8466103
사북고한,강원 정선군 사북읍 사북리 344-56,37.2273544,128.8209264
사우,경기 김포시 사우동 998,37.6203845,126.7162151
사직1호(부산),부산 동래구 사직동 137-26,35.1998642,129.0703844
사직2호,부산 동래구 사직동 89-16,35.1956216,129.0592648
사창,강원 화천군 사내면 사창리 457-12,38.0707990,127.5209779
사천,경남 사천시 사천읍 수석리 293-23,35.0793516,128.0861783
사파,경남 창원시 성산구 사파동 113-16,35.2220448,128.6955948
산격,대구 북구 산격동 1400-20,35.8921125,128.6080713
산곡1호,인천 부평구 산곡동 369-270,37.4919503,126.7044931
산곡2호,인천 부평구 청천동 259-15,37.5063777,126.7148728
산곡3호,인천 부평구 산곡2동 251-1,37.5002500,126.7030497
산내마을,경기 파주시 목동동 937,37.7290920,126.7341714
산동,경북 구미시 산동면 신당리 1437,36.1545180,128.4317474
산본1호,경기 군포시 산본동 1106-3 101호,37.3675841,126.9263197
산본3호,경기 군포시 산본동 1060 산본타운 2층,37.3721878,126.9352672
산본역,경기 군포시 산본동 1132-2,37.3604825,126.9318626
산청,경남 산청군 산청읍 옥산리 249,35.4119022,127.8728868
삼계1호,경남 김해시 삼계동 1479-4,35.2618132,128.8713019
삼계2호,경남 김해시 삼계동 1415-5,35.2687981,128.8635406
삼례우석대,전북 완주군 삼례읍 후정리 13-8,35.9144609,127.0688369
삼문상남,경남 밀양시 삼문동 717-11,35.4829529,128.7496736
삼방,경남 김해시 삼방동 171-12,35.2465793,128.9064962
삼산(부평),인천 부평구 삼산동 433-1,37.5160296,126.7339324
삼산(울산),울산 남구 달동 1266-9,35.5359947,129.3319076
삼산2호,울산 남구 삼산동 203-15,35.5423515,129.3483310
삼성,경남 양산시 북정동 885-12,35.3590211,129.0431521
삼성1호,서울 강남구 삼성동 44-18,37.5120506,127.0490419
삼송,경기도 고양시 덕양구 신원동 626-1 1층 상가 5~6호,37.6624768,126.8897982
삼양화북,제주 제주시 화북1동 1023-2,33.5145109,126.5760442
삼정,경남 김해시 삼정동 590-1,35.2313376,128.8947958
삼척,강원 삼척시 남양동 17-2,37.4444414,129.1637015
삼천1호,전북 전주시 완산구 삼천동1가 621,35.7978282,127.1232738
삼학,전남 목포시 산정동 1284,34.7939100,126.3992443
삼호,전남 영암군 삼호읍 용앙리 481,34.7504123,126.4606853
상계4단지,서울 노원구 상계동 749-5,37.6500683,127.0622109
상계보람,서울 노원구 상계동 456-70,37.6631650,127.0662001
상계역,서울 노원구 중계동 137-39,37.6620523,127.0754903
상남,경남 창원시 성산구 상남동 34-9,35.2204416,128.6814476
상대,경남 진주시 상대동 238-3,35.1840594,128.1146898
상대원1호,경기 성남시 중원구 상대원동 5027,37.4346009,127.1583221
상도,서울 동작구 상도동 535 상도2차 두산위브트레지움아파트 상가,37.5038796,126.9427844
상도터널,서울 동작구 상도동 159-26,37.5004840,126.9495844
상동,전북 정읍시 시기동 170-4,35.5644357,126.8603414
상동석현,전남 목포시 석현동 1173-2,34.8145801,126.4223187
상동역,경기 부천시 원미구 상동 523-3 대동프라자 1층 107호,37.5128050,126.7516666
상모,경북 구미시 상모동 42-7,36.0907125,128.3555219
상무1호,광주 서구 치평동 1258,35.1501451,126.8504806
상문,경남 거제시 상동동 913-2,34.8635291,128.6316314
상봉1호,서울 중랑구 상봉동 91-1,37.5967851,127.0886597
상봉중앙,경남 진주시 중안동 2-11,35.1949086,128.0808968
상북,경남 양산시 상북면 석계리 242-1,35.4141699,129.0588007
상암,서울 마포구 상암동 34-45,37.5767375,126.8945806
상인,대구 달서구 상인동 1555-1,35.8125080,128.5456611
상일,서울 강동구 고덕동 200-3,37.5584097,127.1707492
상일2호,서울 강동구 구천면로 640,37.5502858,127.1690858
상주,경북 상주시 무양동 213-3,36.4220812,128.1587116
상평,경남 진주시 상평동 198-43,35.1767370,128.1125604
상현1호,경기 용인시 수지구 상현동 3-4,37.3141235,127.0884693
상현역,경기 용인시 수지구 상현동 1160,37.2964122,127.0800236
생연,경기 동두천시 생연동 689-28,37.9011721,127.0532308
서곡효자,전북 전주시 완산구 효자동3가 1609-16,35.8273219,127.1055917
서귀포남원,제주 서귀포시 남원읍 남원리 50,33.2803796,126.7226913
서귀포명동,제주 서귀포시 서귀동 408-3,33.2475934,126.5649620
서귀포혁신도시,제주 서귀포시 강정동 166-10,33.2535420,126.5068454
서동1호,부산 금정구 서동 210-6,35.2142301,129.1063667
서면,부산 부산진구 부전동 266-24,35.1592942,129.0599430
서산테크노,충남 서산시 오사리 1666,36.8283908,126.4471317
서신,전북 전주시 완산구 서신동 938-5,35.8356882,127.1103023
서울시립대,서울 동대문구 전농동 295-5,37.5769489,127.0575591
서울시청,서울 중구 태평로2가 55,37.5637532,126.9773538
서재세천,대구 달성군 다사읍 서재리 423-15,35.8714647,128.4971733
서창,인천 남동구 서창동 706,37.4228870,126.7498219
서창1호,경남 양산시 삼호동 707-2,35.4140461,129.1711135
서천,충남 서천군 군사리 718-11,36.0792229,126.6862992
서초1호,서울 서초구 서초동 1357-56,37.4875079,127.0309392
서초2호,서울 서초구 서초동 1669-15,37.4934952,127.0171309
서초3호,서울 서초구 서초동 1579-5,37.4882622,127.0134970
서충주기업도시,"충북 충주시 중앙탑면 용전리 664 (107호, 108호)",37.0161428,127.8251577
서판교,경기 성남시 분당구 판교동 612-3,37.3908026,127.0908691
서현,"경기 성남시 분당구 서현동 89-7, 삼성한신근린상가",37.3815128,127.1281613
석계역,서울 노원구 월계1동 73-13,37.6175378,127.0638829
석관장위,서울 성북구 장위동 50-46,37.6119402,127.0584217
석남가정,인천 서구 가정동 505-4,37.5177200,126.6734910
석동덕산,경남 창원시 진해구 석동 139-6,35.1521775,128.7049276
석림,충남 서산시 예천동 1287-5,36.7705522,126.4513811
석사,강원 춘천시 석사동 748-18(33통405),37.8648874,127.7509183
석산,경남 양산시 동면 금산리 1422-14,35.3127685,129.0250880
석수1호,경기 안양시 만안구 석수1동 177-6,37.4165304,126.9137181
석적,경북 칠곡군 석적읍 중리 203-5,36.0773331,128.4140744
석전회성,경남 창원시 마산회원구 석전동 264-56,35.2280045,128.5726147
석촌,서울 송파구 석촌동 163-1,37.5067428,127.1035682
선부1호,경기 안산시 단원구 선부동 1070-2,37.3360104,126.8090446
선부2호,경기 안산시 단원구 선부동 1142-7,37.3429326,126.8149260
선산,경북 구미시 선산읍 동부리 416,36.2428294,128.3019175
선운지구,광주 광산구 선암동 777,35.1489507,126.7703632
선유도역,서울 영등포구 양평동4가 147-3,37.5372424,126.8956377
선학연수3호,인천 연수구 선학동 406-2,37.4270308,126.6983979
성거,충남 천안시 서북구 성거읍 저리 65-1,36.8750302,127.2018779
성건중앙,경북 경주시 성건동 625-13,35.8550510,129.2073924
성남위례,경기 성남시 수정구 창곡동 547-8,37.4657842,127.1396512
성내,서울 강동구 성내2동 509-7 1층,37.5313547,127.1279569
성내용산,충북 충주시 용산동 1650-2,36.9616147,127.9421417
성덕,강원 강릉시 입암동 498-13,37.7552382,128.9110051
성복,경기 용인시 수지구 성복동 162-3,37.3154878,127.0753266
성산2동,서울 마포구 성산동 592,37.5634262,126.9033573
성산일출봉,제주 서귀포시 성산읍 성산리 362-1,33.4687859,126.9291684
성서,대구 달서구 신당동 1761-5,35.8580492,128.4996317
성성,충남 천안시 서북구 성성동 656,36.8409269,127.1291901
성수1호,서울 성동구 성수동2가 235-1,37.5370219,127.0607551
성수역,서울 성동구 성수동2가 289-251,37.5461246,127.0546417
성안,울산 중구 성안동 804-10,35.5758308,129.3082615
성정,충남 천안시 서북구 성정동 149-4,36.8150311,127.1421378
성주,경북 성주군 성주읍 성산리 2102-4,35.9184690,128.2891482
성주안민,경남 창원시 성산구 성주동 125,35.1983031,128.7113969
성환1호,충남 천안시 서북구 성환읍 매주리 325-5 외 1,36.9113209,127.1297707
세곡,서울 강남구 자곡동 611,37.4741326,127.0940872
세교,경기 평택시 세교동 181-8,37.0011631,127.0783273
세마수청,경기 오산시 수청동 618-1,37.1702978,127.0642072
세종소담,세종 소담동 576,36.4849625,127.3006869
세종아름,세종  아름동 1363,36.5105168,127.2512194
세화,제주 제주시 구좌읍 평대리 3349-8,33.5266205,126.8545167
소래포구,인천 남동구 논현동 671-3,37.4014784,126.7345075
소룡산북,전북 군산시 소룡동 1545-5번지,35.9694114,126.6828082
소사벌,"경기 평택시 비전동 1015 엘도라도 시티 104호, 105호",37.0041253,127.1032524
소사범박,경기 부천시 소사본동 139-9,37.4780963,126.7959118
소촌우산,광주 광산구 소촌동 244-6,35.1574941,126.7953369
소하1호,경기 광명시 소하동 1240-1,37.4362467,126.8818391
소하2호,경기 광명시 소하동 1342-1,37.4476545,126.8828334
솔내,전북 전주시 덕진구 송천동1가 405-1,35.8571287,127.1186661
송강,대전 유성구 봉산동 198-13,36.4365745,127.3866452
송내(동두천),경기 동두천시 지행동 694 예일 복합타워 114호,37.8931115,127.0532400
송내로데오,경기 부천시 원미구 상동 400-2,37.4913247,126.7521588
송도,경북 포항시 남구 해도동 25-28,36.0286482,129.3704588
송도1호,인천 연수구 송도동 21-59  302동 102호,37.3965073,126.6498177
송도8공구,인천 연수구 송도동 316,37.4104943,126.6265570
송도감천,"부산 서구 암남동 64-2 상가동 108호,109호(암남동)",35.0812731,129.0172042
송도드림시티,인천 연수구 송도동 3-2,37.3949558,126.6501533
송도캠퍼스타운,인천 연수구 송도동 155(송도아메리칸타운파크),37.3850536,126.6622171
송산그린시티,경기 화성시 새솔동,37.2812953,126.818772
송우,경기 포천시 소흘읍 송우리 729-3 파크프라자 1층,37.8297811,127.1406466
